{
  "cities": [
    {
      "cityName": "Lisbon",
      "country": "Portugal",
      "emoji": "ðŸ‡µðŸ‡¹",
      "date": "2027-10-31T15:59:59.138Z",
      "notes": "My favorite city so far!",
      "position": {
        "lat": 38.727881642324164,
        "lng": -9.140900099907554
      },
      "id": 73930385
    },
    {
      "cityName": "Madrid",
      "country": "Spain",
      "emoji": "ðŸ‡ªðŸ‡¸",
      "date": "2027-07-15T08:22:53.976Z",
      "notes": "",
      "position": {
        "lat": 40.46635901755316,
        "lng": -3.7133789062500004
      },
      "id": 17806751
    },
    {
      "cityName": "Berlin",
      "country": "Germany",
      "emoji": "ðŸ‡©ðŸ‡ª",
      "date": "2027-02-12T09:24:11.863Z",
      "notes": "Amazing ðŸ˜ƒ",
      "position": {
        "lat": 52.53586782505711,
        "lng": 13.376933665713324
      },
      "id": 98443197
    },
    {
      "cityName": "Nijar",
      "country": "Spain",
      "emoji": "ðŸ‡ªðŸ‡¸",
      "date": "2023-04-03T07:47:59.202Z",
      "notes": "",
      "position": {
        "lat": 36.967508314568164,
        "lng": -2.13128394200588
      },
      "id": 98443198
    },
    {
      "cityName": "Champigny-sur-Marne",
      "country": "France",
      "emoji": "ðŸ‡«ðŸ‡·",
      "date": "2024-12-30T22:18:29.933Z",
      "notes": "",
      "position": {
        "lat": "48.80686346108519",
        "lng": "2.5488281250000004"
      },
      "id": 0.9358718723316894
    },
    {
      "cityName": "Lippetal",
      "country": "Germany",
      "emoji": "ðŸ‡©ðŸ‡ª",
      "date": "2024-12-30T22:19:59.457Z",
      "notes": "",
      "position": {
        "lat": "51.699799849741936",
        "lng": "8.151855468750002"
      },
      "id": 0.5324620255638186
    },
    {
      "cityName": "Sontra",
      "country": "Germany",
      "emoji": "ðŸ‡©ðŸ‡ª",
      "date": "2024-12-30T22:42:50.695Z",
      "notes": "",
      "position": {
        "lat": "51.055207338584964",
        "lng": "9.865722656250002"
      },
      "id": 0.8954791686032282
    }
  ]
}